[
  {
    "id": "ace-sports-dlf",
    "name": "Ace Sports Complex",
    "nameHi": "एस स्पोर्ट्स कॉम्प्लेक्स",
    "cityId": "gurgaon",
    "address": "DLF Phase 2, Gurgaon",
    "courts": 4,
    "pricePerHour": 800,
    "amenities": ["parking", "locker", "shower", "cafe", "equipment"],
    "rating": 4.5,
    "image": "/api/placeholder/400/300",
    "description": "Premium pickleball facility with professional courts and amenities.",
    "phone": "+91 98765 43210",
    "openHours": "06:00-23:00"
  },
  {
    "id": "metro-courts-cp",
    "name": "Metro Courts",
    "nameHi": "मेट्रो कोर्ट्स",
    "cityId": "delhi",
    "address": "Connaught Place, New Delhi",
    "courts": 6,
    "pricePerHour": 600,
    "amenities": ["parking", "locker", "equipment"],
    "rating": 4.2,
    "image": "/api/placeholder/400/300",
    "description": "Centrally located courts perfect for quick games.",
    "phone": "+91 98765 43211",
    "openHours": "05:30-22:30"
  },
  {
    "id": "sports-village-noida",
    "name": "Sports Village",
    "nameHi": "स्पोर्ट्स विलेज",
    "cityId": "noida",
    "address": "Sector 18, Noida",
    "courts": 8,
    "pricePerHour": 700,
    "amenities": ["parking", "locker", "shower", "cafe", "equipment", "coaching"],
    "rating": 4.7,
    "image": "/api/placeholder/400/300",
    "description": "Largest pickleball complex in NCR with professional coaching.",
    "phone": "+91 98765 43212",
    "openHours": "06:00-22:00"
  },
  {
    "id": "green-valley-faridabad",
    "name": "Green Valley Sports",
    "nameHi": "ग्रीन वैली स्पोर्ट्स",
    "cityId": "faridabad",
    "address": "Sector 15, Faridabad",
    "courts": 3,
    "pricePerHour": 500,
    "amenities": ["parking", "equipment"],
    "rating": 4.0,
    "image": "/api/placeholder/400/300",
    "description": "Affordable courts in peaceful surroundings.",
    "phone": "+91 98765 43213",
    "openHours": "07:00-21:00"
  },
  {
    "id": "racquet-club-gzb",
    "name": "Racquet Club",
    "nameHi": "रैकेट क्लब",
    "cityId": "ghaziabad",
    "address": "Raj Nagar, Ghaziabad",
    "courts": 2,
    "pricePerHour": 450,
    "amenities": ["parking", "locker"],
    "rating": 3.8,
    "image": "/api/placeholder/400/300",
    "description": "Intimate club setting for serious players.",
    "phone": "+91 98765 43214",
    "openHours": "06:30-22:00"
  },
  {
    "id": "prime-courts-mg",
    "name": "Prime Courts",
    "nameHi": "प्राइम कोर्ट्स",
    "cityId": "gurgaon",
    "address": "MG Road, Gurgaon",
    "courts": 5,
    "pricePerHour": 900,
    "amenities": ["parking", "locker", "shower", "cafe", "equipment", "valet"],
    "rating": 4.8,
    "image": "/api/placeholder/400/300",
    "description": "Luxury pickleball experience with premium services.",
    "phone": "+91 98765 43215",
    "openHours": "05:00-24:00"
  },
  {
    "id": "community-center-dwarka",
    "name": "Dwarka Community Center",
    "nameHi": "द्वारका कम्युनिटी सेंटर",
    "cityId": "delhi",
    "address": "Dwarka Sector 12, Delhi",
    "courts": 2,
    "pricePerHour": 300,
    "amenities": ["parking"],
    "rating": 3.5,
    "image": "/api/placeholder/400/300",
    "description": "Budget-friendly community courts.",
    "phone": "+91 98765 43216",
    "openHours": "07:00-20:00"
  },
  {
    "id": "tech-park-courts",
    "name": "Tech Park Courts",
    "nameHi": "टेक पार्क कोर्ट्स",
    "cityId": "noida",
    "address": "Sector 62, Noida",
    "courts": 4,
    "pricePerHour": 650,
    "amenities": ["parking", "locker", "shower", "equipment"],
    "rating": 4.3,
    "image": "/api/placeholder/400/300",
    "description": "Modern courts in the heart of tech district.",
    "phone": "+91 98765 43217",
    "openHours": "06:00-23:00"
  }
]